{
"type": "FeatureCollection",
"name": "city",
"crs": { "type": "name", "properties": { "name": "urn:ogc:def:crs:OGC:1.3:CRS84" } },
"features": [
{ "type": "Feature", "properties": { "city": "5LiK5rW3", "name": "6ZmI56yb", "modified_date": "2023-04", "n": 5.0 }, "geometry": { "type": "Point", "coordinates": [ 121.45806, 31.22222 ] } },
{ "type": "Feature", "properties": { "city": "5puy6Zic", "name": "6ZmI5L2z5LmQ", "modified_date": "2023-04", "n": 1.0 }, "geometry": { "type": "Point", "coordinates": [ 116.96528, 35.62111 ] } },
{ "type": "Feature", "properties": { "city": "6Z2S5bKb", "name": "6ZmI5aiB6b6Z", "modified_date": "2023-04", "n": 6.0 }, "geometry": { "type": "Point", "coordinates": [ 120.38042, 36.06488 ] } },
{ "type": "Feature", "properties": { "city": "5LiK5rW3", "name": "6YKT5aSp54S2", "modified_date": "2023-04", "n": 5.0 }, "geometry": { "type": "Point", "coordinates": [ 121.45806, 31.22222 ] } },
{ "type": "Feature", "properties": { "city": "TkE=", "name": "6IyD5Y2a5rql", "modified_date": "2019-06", "n": -1.0 }, "geometry": { "type": "Point", "coordinates": [ 0.0, 0.0 ] } },
{ "type": "Feature", "properties": { "city": "5ZOI5bCU5ruo", "name": "6IyD5rW35bed", "modified_date": "2019-06", "n": 2.0 }, "geometry": { "type": "Point", "coordinates": [ 126.5303997, 45.7988273 ] } },
{ "type": "Feature", "properties": { "city": "5rWO5Y2X", "name": "5oi/5a2Q5q2j", "modified_date": "2023-04", "n": 1.0 }, "geometry": { "type": "Point", "coordinates": [ 116.99722, 36.66833 ] } },
{ "type": "Feature", "properties": { "city": "5bm/5bee", "name": "6LS55LqI5piC", "modified_date": "2023-04", "n": 2.0 }, "geometry": { "type": "Point", "coordinates": [ 113.25, 23.11667 ] } },
{ "type": "Feature", "properties": { "city": "5aKo5bCU5pys", "name": "6auY5Yeh55qT", "modified_date": "2023-04", "n": 1.0 }, "geometry": { "type": "Point", "coordinates": [ 140.275624209999989, 35.71418194 ] } },
{ "type": "Feature", "properties": { "city": "5bm/5bee", "name": "6auY5rqQ", "modified_date": "2023-04", "n": 2.0 }, "geometry": { "type": "Point", "coordinates": [ 113.25, 23.11667 ] } },
{ "type": "Feature", "properties": { "city": "5peg6ZSh", "name": "6YOt5ZCJ5a6J", "modified_date": "2023-09", "n": 1.0 }, "geometry": { "type": "Point", "coordinates": [ 120.28857, 31.56887 ] } },
{ "type": "Feature", "properties": { "city": "572X5YiH5pav54m5", "name": "6Z+p5piO55Gc", "modified_date": "2023-04", "n": 1.0 }, "geometry": { "type": "Point", "coordinates": [ -77.612547, 43.155708 ] } },
{ "type": "Feature", "properties": { "city": "5YyX5Lqs", "name": "5L2V5Yev55Cm", "modified_date": "2023-07", "n": 9.0 }, "geometry": { "type": "Point", "coordinates": [ 116.3912757, 39.906217001 ] } },
{ "type": "Feature", "properties": { "city": "TkE=", "name": "6buE5a626ZOt", "modified_date": "2019-06", "n": -1.0 }, "geometry": { "type": "Point", "coordinates": [ 0.0, 0.0 ] } },
{ "type": "Feature", "properties": { "city": "5Yy55YW55aCh", "name": "6buE5L+K5oG6", "modified_date": "2023-04", "n": 1.0 }, "geometry": { "type": "Point", "coordinates": [ -79.99589, 40.44062 ] } },
{ "type": "Feature", "properties": { "city": "5aSp5rSl", "name": "5a2j5paH6L2p", "modified_date": "2023-04", "n": 2.0 }, "geometry": { "type": "Point", "coordinates": [ 117.17667, 39.14222 ] } },
{ "type": "Feature", "properties": { "city": "5reE5Y2a", "name": "5rGf5biF", "modified_date": "2023-04", "n": 1.0 }, "geometry": { "type": "Point", "coordinates": [ 117.980675, 36.819626 ] } },
{ "type": "Feature", "properties": { "city": "6aaZ5riv", "name": "5rGf5LiA6K+6", "modified_date": "2023-04", "n": 1.0 }, "geometry": { "type": "Point", "coordinates": [ 114.119385987, 22.351958323 ] } },
{ "type": "Feature", "properties": { "city": "6KW/5a6J", "name": "5p2O5L+K5bqt", "modified_date": "2023-09", "n": 1.0 }, "geometry": { "type": "Point", "coordinates": [ 108.92861, 34.25833 ] } },
{ "type": "Feature", "properties": { "city": "5YyX5Lqs", "name": "5p2O5Z2k6ZyW", "modified_date": "2023-04", "n": 9.0 }, "geometry": { "type": "Point", "coordinates": [ 116.3912757, 39.906217001 ] } },
{ "type": "Feature", "properties": { "city": "TkE=", "name": "5p2O5qKm5paQ", "modified_date": "2019-06", "n": -1.0 }, "geometry": { "type": "Point", "coordinates": [ 0.0, 0.0 ] } },
{ "type": "Feature", "properties": { "city": "5YyX5Lqs", "name": "5p2O5pmf5piK", "modified_date": "2023-04", "n": 9.0 }, "geometry": { "type": "Point", "coordinates": [ 116.3912757, 39.906217001 ] } },
{ "type": "Feature", "properties": { "city": "6IuP6buO5LiW", "name": "5p2O5pmb", "modified_date": "2023-04", "n": 1.0 }, "geometry": { "type": "Point", "coordinates": [ 8.55, 47.36667 ] } },
{ "type": "Feature", "properties": { "city": "5ZCI6IKl", "name": "5p2O6ZuF6L6w", "modified_date": "2023-04", "n": 1.0 }, "geometry": { "type": "Point", "coordinates": [ 117.28083, 31.86389 ] } },
{ "type": "Feature", "properties": { "city": "5LiK5rW3", "name": "5p6X546u6L2p", "modified_date": "2025-05", "n": 5.0 }, "geometry": { "type": "Point", "coordinates": [ 121.45806, 31.22222 ] } },
{ "type": "Feature", "properties": { "city": "5oWV5bC86buR", "name": "5YiY55WF", "modified_date": "2023-09", "n": 1.0 }, "geometry": { "type": "Point", "coordinates": [ 11.57549, 48.13743 ] } },
{ "type": "Feature", "properties": { "city": "5YyX5Lqs", "name": "5YiY5paw5LiA", "modified_date": "2023-04", "n": 9.0 }, "geometry": { "type": "Point", "coordinates": [ 116.3912757, 39.906217001 ] } },
{ "type": "Feature", "properties": { "city": "6Z2S5bKb", "name": "5YiY56WO5bO7", "modified_date": "2023-04", "n": 6.0 }, "geometry": { "type": "Point", "coordinates": [ 120.38042, 36.06488 ] } },
{ "type": "Feature", "properties": { "city": "6Z2S5bKb", "name": "5YiY5rO96L6w", "modified_date": "2023-04", "n": 6.0 }, "geometry": { "type": "Point", "coordinates": [ 120.38042, 36.06488 ] } },
{ "type": "Feature", "properties": { "city": "6Z2S5bKb", "name": "5ZCV6Iqz5oCh", "modified_date": "2023-04", "n": 6.0 }, "geometry": { "type": "Point", "coordinates": [ 120.38042, 36.06488 ] } },
{ "type": "Feature", "properties": { "city": "6Z2S5bKb", "name": "5ZCV5ZiJ5p2w", "modified_date": "2023-04", "n": 6.0 }, "geometry": { "type": "Point", "coordinates": [ 120.38042, 36.06488 ] } },
{ "type": "Feature", "properties": { "city": "5aSp5rSl", "name": "6ams5rWp5YWD", "modified_date": "2023-04", "n": 2.0 }, "geometry": { "type": "Point", "coordinates": [ 117.17667, 39.14222 ] } },
{ "type": "Feature", "properties": { "city": "5ZOI5bCU5ruo", "name": "5a6B5LqR54Wc", "modified_date": "2019-06", "n": 2.0 }, "geometry": { "type": "Point", "coordinates": [ 126.5303997, 45.7988273 ] } },
{ "type": "Feature", "properties": { "city": "5p2t5bee", "name": "5puy5pS/", "modified_date": "2023-04", "n": 1.0 }, "geometry": { "type": "Point", "coordinates": [ 120.16142, 30.29365 ] } },
{ "type": "Feature", "properties": { "city": "5YyX5Lqs", "name": "55+z5pyd6Ziz", "modified_date": "2023-09", "n": 9.0 }, "geometry": { "type": "Point", "coordinates": [ 116.3912757, 39.906217001 ] } },
{ "type": "Feature", "properties": { "city": "5YyX5Lqs", "name": "546L5Y+46bqS", "modified_date": "2019-06", "n": 9.0 }, "geometry": { "type": "Point", "coordinates": [ 116.3912757, 39.906217001 ] } },
{ "type": "Feature", "properties": { "city": "5YyX5Lqs", "name": "546L6aKC5rSL", "modified_date": "2023-09", "n": 9.0 }, "geometry": { "type": "Point", "coordinates": [ 116.3912757, 39.906217001 ] } },
{ "type": "Feature", "properties": { "city": "5YyX5Lqs", "name": "546L5pmT5piA", "modified_date": "2025-05", "n": 9.0 }, "geometry": { "type": "Point", "coordinates": [ 116.3912757, 39.906217001 ] } },
{ "type": "Feature", "properties": { "city": "5q2m5rGJ", "name": "546L5rO96b6Z", "modified_date": "2023-04", "n": 1.0 }, "geometry": { "type": "Point", "coordinates": [ 114.26667, 30.58333 ] } },
{ "type": "Feature", "properties": { "city": "6Z2S5bKb", "name": "6YKi6ZKw6Zuv", "modified_date": "2023-04", "n": 6.0 }, "geometry": { "type": "Point", "coordinates": [ 120.38042, 36.06488 ] } },
{ "type": "Feature", "properties": { "city": "5YyX5Lqs", "name": "5b6Q5pel5rWp", "modified_date": "2023-04", "n": 9.0 }, "geometry": { "type": "Point", "coordinates": [ 116.3912757, 39.906217001 ] } },
{ "type": "Feature", "properties": { "city": "5aWl5pav5rGA", "name": "5b6Q5LiA5pyr", "modified_date": "2023-04", "n": 1.0 }, "geometry": { "type": "Point", "coordinates": [ -97.746598, 30.264979 ] } },
{ "type": "Feature", "properties": { "city": "TkE=", "name": "6Jab5LiB5rql", "modified_date": "2019-06", "n": -1.0 }, "geometry": { "type": "Point", "coordinates": [ 0.0, 0.0 ] } },
{ "type": "Feature", "properties": { "city": "TkE=", "name": "6Jab5Lq66LGq", "modified_date": "2019-06", "n": -1.0 }, "geometry": { "type": "Point", "coordinates": [ 0.0, 0.0 ] } },
{ "type": "Feature", "properties": { "city": "5LiK5rW3", "name": "6Zer5LiA5aWH", "modified_date": "2023-04", "n": 5.0 }, "geometry": { "type": "Point", "coordinates": [ 121.45806, 31.22222 ] } },
{ "type": "Feature", "properties": { "city": "TkE=", "name": "5p2o5a2Q6LSk", "modified_date": "2019-06", "n": -1.0 }, "geometry": { "type": "Point", "coordinates": [ 0.0, 0.0 ] } },
{ "type": "Feature", "properties": { "city": "5LiK5rW3", "name": "5byg6L6w6Zuo", "modified_date": "2023-04", "n": 5.0 }, "geometry": { "type": "Point", "coordinates": [ 121.45806, 31.22222 ] } },
{ "type": "Feature", "properties": { "city": "5oiQ6YO9", "name": "56ug5Lic5b69", "modified_date": "2023-04", "n": 1.0 }, "geometry": { "type": "Point", "coordinates": [ 104.0633717, 30.6598628 ] } },
{ "type": "Feature", "properties": { "city": "TkE=", "name": "5byg56uL5a6X", "modified_date": "2019-06", "n": -1.0 }, "geometry": { "type": "Point", "coordinates": [ 0.0, 0.0 ] } },
{ "type": "Feature", "properties": { "city": "6IuP5bee", "name": "5byg5LiA6bij", "modified_date": "2019-06", "n": 1.0 }, "geometry": { "type": "Point", "coordinates": [ 120.59538, 31.30408 ] } },
{ "type": "Feature", "properties": { "city": "576O5Zu96KW/6ZuF5Zu+", "name": "5Luy5pit6Ziz", "modified_date": "2023-04", "n": 1.0 }, "geometry": { "type": "Point", "coordinates": [ -99.41461919, 39.398703156 ] } }
]
}
